{"type": "FeatureCollection", "features": [{"type": "Feature", "geometry": {"type": "Point", "coordinates": [-71.1685, 42.3355]}, "properties": {"SchoolName": "Boston College", "Cases": 255, "City": "Chestnut Hill"}}, {"type": "Feature", "geometry": {"type": "Point", "coordinates": [-71.1054, 42.3505]}, "properties": {"SchoolName": "Boston University", "Cases": 252, "City": "Boston"}}, {"type": "Feature", "geometry": {"type": "Point", "coordinates": [-72.5301, 42.3868]}, "properties": {"SchoolName": "University of Massachusetts Amherst", "Cases": 180, "City": "Amherst"}}, {"type": "Feature", "geometry": {"type": "Point", "coordinates": [-71.0892, 42.3398]}, "properties": {"SchoolName": "Northeastern University", "Cases": 172, "City": "Boston"}}, {"type": "Feature", "geometry": {"type": "Point", "coordinates": [-71.1226, 42.6677]}, "properties": {"SchoolName": "Merrimack College", "Cases": 141, "City": "North Andover"}}, {"type": "Feature", "geometry": {"type": "Point", "coordinates": [-71.1167, 42.377]}, "properties": {"SchoolName": "Harvard University", "Cases": 105, "City": "Cambridge"}}, {"type": "Feature", "geometry": {"type": "Point", "coordinates": [-71.2218, 42.3855]}, "properties": {"SchoolName": "Bentley University", "Cases": 64, "City": "Waltham"}}, {"type": "Feature", "geometry": {"type": "Point", "coordinates": [-71.0942, 42.3601]}, "properties": {"SchoolName": "Massachusetts Institute of Technology", "Cases": 58, "City": "Cambridge"}}, {"type": "Feature", "geometry": {"type": "Point", "coordinates": [-71.0942, 42.3601]}, "properties": {"SchoolName": "Tufts University", "Cases": 50, "City": "Medford"}}, {"type": "Feature", "geometry": {"type": "Point", "coordinates": [-71.0046, 41.6282]}, "properties": {"SchoolName": "University of Massachusetts Dartmouth", "Cases": 47, "City": "Dartmouth"}}, {"type": "Feature", "geometry": {"type": "Point", "coordinates": [-71.11477359999999, 42.2409322]}, "properties": {"SchoolName": "Curry College", "Cases": 46, "City": "Milton"}}, {"type": "Feature", "geometry": {"type": "Point", "coordinates": [-71.0618, 42.359]}, "properties": {"SchoolName": "Suffolk University", "Cases": 38, "City": "Boston"}}, {"type": "Feature", "geometry": {"type": "Point", "coordinates": [-74.0263, 40.9762]}, "properties": {"SchoolName": "Emerson College", "Cases": 31, "City": "Boston"}}, {"type": "Feature", "geometry": {"type": "Point", "coordinates": [-71.8441, 42.2678]}, "properties": {"SchoolName": "Worcester State University", "Cases": 27, "City": "Worcester"}}, {"type": "Feature", "geometry": {"type": "Point", "coordinates": [-71.0373, 42.3145]}, "properties": {"SchoolName": "University of Massachusetts Boston", "Cases": 27, "City": "Boston"}}, {"type": "Feature", "geometry": {"type": "Point", "coordinates": [-71.1013, 42.3368]}, "properties": {"SchoolName": "Massachusetts College of Pharmacy and Health Sciences", "Cases": 25, "City": "Boston"}}, {"type": "Feature", "geometry": {"type": "Point", "coordinates": [-71.0965, 42.3371]}, "properties": {"SchoolName": "Wentworth Institute of Technology", "Cases": 24, "City": "Boston"}}, {"type": "Feature", "geometry": {"type": "Point", "coordinates": [-71.4366, 42.2984]}, "properties": {"SchoolName": "Framingham State University", "Cases": 22, "City": "Framingham"}}, {"type": "Feature", "geometry": {"type": "Point", "coordinates": [-71.829, 42.2927]}, "properties": {"SchoolName": "Assumption College", "Cases": 22, "City": "Worcester"}}, {"type": "Feature", "geometry": {"type": "Point", "coordinates": [-71.808, 42.2392]}, "properties": {"SchoolName": "College of the Holy Cross", "Cases": 21, "City": "Worcester"}}, {"type": "Feature", "geometry": {"type": "Point", "coordinates": [-71.2586, 42.3657]}, "properties": {"SchoolName": "Brandeis University", "Cases": 21, "City": "Waltham"}}, {"type": "Feature", "geometry": {"type": "Point", "coordinates": [-71.8081, 42.2743]}, "properties": {"SchoolName": "Worcester Polytechnic Institute", "Cases": 19, "City": "Worcester"}}, {"type": "Feature", "geometry": {"type": "Point", "coordinates": [-72.517, 42.3709]}, "properties": {"SchoolName": "Amherst College", "Cases": 5, "City": "Amherst"}}, {"type": "Feature", "geometry": {"type": "Point", "coordinates": [-72.5767, 42.2536]}, "properties": {"SchoolName": "Mount Holyoke College", "Cases": 3, "City": "South Hadley"}}, {"type": "Feature", "geometry": {"type": "Point", "coordinates": [-72.6403, 42.3163]}, "properties": {"SchoolName": "Smith College", "Cases": 2, "City": "Northampton"}}]}